- name: KDE
  short: kde
  url: https://www.kde.org/
  links:
    - { title: "Announcement", url: "https://community.kde.org/Promo/Events/FossNorth" }
  venue: sylog
  venuename: Sylog
  venueurl: https://www.sylog.se/
  description: T.B.D.
  address: 
    - Sylog Väst AB
    - Theres Svenssons Gata 10 
    - 417 55 Göteborg
  lon: 11.945472
  lat: 57.706903
  
- name: Zephyr
  short: zephyr
  url: https://www.zephyrproject.org/
  venue: endian
  venuename: Endian
  venueurl: https://endian.se/
  description: T.B.D.
  address:
    - Endian Technologies AB
    - Flöjelbergsgatan 11
    - 431 37 Mölndal
  lon: 12.01522
  lat: 57.67107

- name: FreeBSD
  short: freebsd
  url: https://www.freebsd.org/
  links: 
    - { title: "About", url: "https://www.freebsdfoundation.org/about/project/" }
  venue: b3
  venuename: B3 Consulting
  venueurl: https://b3.se/
  description: 
    - "Developer meetup and hacking, presentation of the FreeBSD project and what we do."
    - "Possibility to try it out and install on own device."
  address:
    - B3 Consulting Göteborg
    - Kämpegatan 6
    - 411 04 Göteborg
  lon: 11.97361
  lat: 57.71509

- name: Debian
  short: debian
  venue: kuro
  venuename: Kuro Studio
  venueurl: http://kurostudio.com/
  url: https://www.debian.org/
  links:
    - { title: "Announcement", url: "https://wiki.debian.org/BSP/2019/04/se/Gothenburg" }
    - { title: "BSP", url: "http://wiki.debian.org/BSP" }
    - { title: "RC Bug squashing", url: "http://people.debian.org/~vorlon/rc-bugsquashing.html" }
    - { title: "RC", url: "http://bugs.debian.org/release-critical/" }
  description:
    - "We are happy to invite you to a  Debian Bug Squashing Party in Gothenburg, Sweden, on Sunday April 7th 2019."
    - "Team meetings/sprints during the BSP are welcome, just let me know in advance so we can organize appropriate rooms."
    - "A short registration on the wiki page is required to ease the organization of the event. On the same page you will find information regarding transport, (sponsored) accommodation and other useful things."
    - "Even if you are not a Debian Developer or Contributor yet, but interested in fixing bugs and helping Debian, don't hesitate to come!"
    - "There will be enough people around to sponsor your uploads. More information about BSPs and RC-Bugsquashing can be found at the wiki via the links above."
  address: 
    - Kuro Studio AB
    - Kyrkogatan 15
    - 411 15 Göteborg
  lon: 11.96639
  lat: 57.70496

- name: Rust
  short: rust
  url: https://www.rust-lang.org/
  venue: hiq
  venuename: HiQ
  description: T.B.D.
  address: 
    - HiQ
    - Östra Hamngatan 24
    - 411 09 Göteborg
  lon: 11.96746
  lat: 57.70844

- name: Chalmers Robotförening
  short: crf
  url: https://chalmersrobotics.se
  description: T.B.D.
  address:
    - Chalmers Robotförening
    - Sven Hultins gata 8
    - 412 58 Göteborg
  lon: 11.97724
  lat: 57.68654
